GMAT_Eclipse.txt

Spacecraft: DefaultSC

Start Time (UTC)            Stop Time (UTC)               Duration (s)    Occ Body        Type        Event Number  Total Duration (s)
01 Jan 2000 12:08:41.711    01 Jan 2000 12:43:28.161      2086.4504377    Earth           Umbra       1             2086.4504377
01 Jan 2000 13:41:07.671    01 Jan 2000 14:15:54.153      2086.4818211    Earth           Umbra       2             2086.4818211
01 Jan 2000 15:13:33.630    01 Jan 2000 15:48:20.144      2086.5133891    Earth           Umbra       3             2086.5133891
01 Jan 2000 16:45:59.590    01 Jan 2000 17:20:46.135      2086.5451434    Earth           Umbra       4             2086.5451434
01 Jan 2000 18:18:25.549    01 Jan 2000 18:53:12.126      2086.5770809    Earth           Umbra       5             2086.5770809
01 Jan 2000 19:50:51.508    01 Jan 2000 20:25:38.117      2086.6092021    Earth           Umbra       6             2086.6092021
01 Jan 2000 21:23:17.466    01 Jan 2000 21:58:04.108      2086.6415052    Earth           Umbra       7             2086.6415052
01 Jan 2000 22:55:43.425    01 Jan 2000 23:30:30.099      2086.6739903    Earth           Umbra       8             2086.6739903
02 Jan 2000 00:28:09.383    02 Jan 2000 01:02:56.090      2086.7066568    Earth           Umbra       9             2086.7066568
02 Jan 2000 02:00:35.341    02 Jan 2000 02:35:22.081      2086.7395043    Earth           Umbra       10            2086.7395043
02 Jan 2000 03:33:01.299    02 Jan 2000 04:07:48.072      2086.7725329    Earth           Umbra       11            2086.7725329
02 Jan 2000 05:05:27.257    02 Jan 2000 05:40:14.062      2086.8057428    Earth           Umbra       12            2086.8057428
02 Jan 2000 06:37:53.214    02 Jan 2000 07:12:40.053      2086.8391344    Earth           Umbra       13            2086.8391344
02 Jan 2000 08:10:19.171    02 Jan 2000 08:45:06.044      2086.8727087    Earth           Umbra       14            2086.8727087
02 Jan 2000 09:42:45.128    02 Jan 2000 10:17:32.035      2086.9064659    Earth           Umbra       15            2086.9064659
02 Jan 2000 11:15:11.085    02 Jan 2000 11:49:58.026      2086.9404047    Earth           Umbra       16            2086.9404047

Number of individual events : 16
Number of total events      : 16
Maximum duration (s)        :   2086.9404047
Maximum duration at the 16th eclipse.


